


<markers><marker lat="38.7988701" lng="0.186262" species="Carybdea marsupialis" address="puerto de javea" /><marker lat="38.79580454367221" lng="0.1838922500" species="Carybdea marsupialis" address="puerto de javea" /><marker lat="" lng="" species="Carybdea marsupialis" address="" /><marker lat="41.1585845" lng="1.4477981" species="Carybdea marsupialis" address="Creixell/ Torredembarra" /><marker lat="38.352325500601815" lng="-0.40529251" species="Carybdea marsupialis" address="cabo de las huetas, alicante" /><marker lat="41.450137" lng="2.2474195" species="Carybdea marsupialis" address="Pont del Petroli, Badalona" /><marker lat="41.450137" lng="2.2474195" species="Carybdea marsupialis" address="Badalona" /><marker lat="41.450137" lng="2.2474195" species="Carybdea marsupialis" address="Badalona" /><marker lat="41.450137" lng="2.2474195" species="Carybdea marsupialis" address="Badalona" /><marker lat="41.450137" lng="2.2474195" species="Carybdea marsupialis" address="Badalona" /><marker lat="37.507236152929075" lng="-1.40031909" species="Carybdea marsupialis" address="puntas de calnegre " /><marker lat="41.450137" lng="2.2474195" species="Carybdea marsupialis" address="Pont del Petroli, Badalona" /><marker lat="41.443192842475774" lng="2.250169515" species="Carybdea marsupialis" address="Badalona" /><marker lat="37.8350404" lng="-0.7915859" species="Carybdea marsupialis" address="San Pedro del Pinatar" /><marker lat="41.450137" lng="2.2474195" species="Carybdea marsupialis" address="Pont del petroli, Badalona" /><marker lat="37.23690347465961" lng="-1.781169176" species="Carybdea marsupialis" address="Playa Quitapellejos Palomares Almería" /><marker lat="41.450137" lng="2.2474195" species="Carybdea marsupialis" address="Pont del petroli, Badalona" /><marker lat="40.8132425" lng="0.7095863" species="Carybdea marsupialis" address="la ampolla" /><marker lat="38.9690215" lng="-0.1851868" species="Carybdea marsupialis" address="Puerto, Gandía" /><marker lat="40.6474969" lng="0.7485282" species="Carybdea marsupialis" address="Delta del Ebro" /><marker lat="38.868497958170124" lng="0.024152755" species="Carybdea marsupialis" address="" /><marker lat="38.8603908" lng="0.0426976" species="Carybdea marsupialis" address="Playa Molins, Denia" /><marker lat="38.93057083449051" lng="-0.095761623" species="Carybdea marsupialis" address="Oliva, Valencia" /><marker lat="38.83101608549351" lng="0.1647949218" species="Carybdea marsupialis" address="" /><marker lat="" lng="" species="Carybdea marsupialis" address="Almadraba, Denia" /><marker lat="41.3850639" lng="2.1734035" species="Carybdea marsupialis" address="Barcelona" /><marker lat="42.25" lng="3.1166667" species="Carybdea marsupialis" address="Empuriabrava" /><marker lat="" lng="" species="Carybdea marsupialis" address="Rio Racons, Denia" /></markers>
